{"features": [{"geometry": {"coordinates": [29.285971,41.088807], "type": "Point"}, "properties": {"city": "\u0130stanbul", "telefon": "0545 844 11 44", "name": "Bi Nefes Psikolojik Dan\u0131\u015fmanl\u0131k Merkezi"}, "type": "Feature"}, {"geometry": {"coordinates": [29.408006,40.987127], "type": "Point"}, "properties": {"city": "\u0130stanbul", "telefon": "0541 144 21 54", "name": "Psikolojik Dan\u0131\u015fmanl\u0131k Merkezi"}, "type": "Feature"}, {"geometry": {"coordinates": [28.902342,40.999839], "type": "Point"}, "properties": {"city": "\u0130stanbul", "telefon": "0531 840 19 50", "name": "Bakirk\u00f6y Mylife Psikolojik Dan\u0131\u015fmanl\u0131k"}, "type": "Feature"}, {"geometry": {"coordinates": [28.936189,41.074459], "type": "Point"}, "properties": {"city": "\u0130stanbul", "telefon": "0531 124 11 04", "name": "TeraHayat Psikolojik Dan\u0131\u015fmanl\u0131k"}, "type": "Feature"}, {"geometry": {"coordinates": [29.047097,40.988505], "type": "Point"}, "properties": {"city": "\u0130stanbul", "telefon": "0545 814 91 14", "name": "May\u0131s Psikoloji (Dan\u0131\u015fmanl\u0131k Merkezi)"}, "type": "Feature"}, {"geometry": {"coordinates": [29.288002,40.902004], "type": "Point"}, "properties": {"city": "\u0130stanbul", "telefon": "0544 144 12 24", "name": "MEFA Psikolojik Dan\u0131\u015fmanl\u0131k Merkezi"}, "type": "Feature"}, {"geometry": {"coordinates": [29.281002,40.942004], "type": "Point"}, "properties": {"city": "\u0130stanbul", "telefon": "0542 804 91 54", "name": "Pendik Devlet Hastanesi Kaynarca Semt Poliklini\u011fi"}, "type": "Feature"}, {"geometry": {"coordinates": [27.8323,41.293348], "type": "Point"}, "properties": {"city": "Tekirda\u011f", "telefon": "0542 804 21 14", "name": "Ye\u015filay Dan\u0131\u015fmanl\u0131k Merkezi (YEDAM) Tekirda\u011f"}, "type": "Feature"}, {"geometry": {"coordinates": [27.816132,41.858152], "type": "Point"}, "properties": {"city": "Edirne", "telefon": "0531 144 01 54", "name": "Sen Psikolojik Dan\u0131\u015fmanl\u0131k"}, "type": "Feature"}, {"geometry": {"coordinates": [27.933895,41.946522], "type": "Point"}, "properties": {"city": "K\u0131rklareli", "telefon": "0541 842 11 04", "name": "S\u0130MYA PS\u0130KOLOJ\u0130K PEDAGOJ\u0130K DANI\u015eMANLIK MERKEZ\u0130"}, "type": "Feature"}, {"geometry": {"coordinates": [26.456507,40.172901], "type": "Point"}, "properties": {"city": "\u00c7anakkale", "telefon": "0541 844 21 24", "name": "Sezi\u015f Psikolojik Dan\u0131\u015fmanl\u0131k"}, "type": "Feature"}, {"geometry": {"coordinates": [36.343825,36.33684], "type": "Point"}, "properties": {"city": "Hatay", "telefon": "0530 407 14 56", "name": "Hayat Psikolojik Dan\u0131\u015fmanl\u0131k Merkezi"}, "type": "Feature"}, {"geometry": {"coordinates": [33.953194,36.503078], "type": "Point"}, "properties": {"city": "Mersin", "telefon": "(0324) 327 37 67", "name": "Mersin Psikolojik Dan\u0131\u015fmanl\u0131k Ya\u015fam Psikoloji D\u00fcnyas\u0131"}, "type": "Feature"}, {"geometry": {"coordinates": [35.31045,36.988501], "type": "Point"}, "properties": {"city": "Adana", "telefon": "0531 784 76 51", "name": "Adana \u00d6zel Aile Dan\u0131\u015fmanl\u0131\u011f\u0131 Merkezi"}, "type": "Feature"}, {"geometry": {"coordinates": [37.301412,37.030417], "type": "Point"}, "properties": {"city": "Gaziantep", "telefon": "0507 396 69 41", "name": "Gaziantep Psikolojik Dan\u0131\u015fmanl\u0131k ve Test Merkezi"}, "type": "Feature"}, {"geometry": {"coordinates": [39.225881,37.459941], "type": "Point"}, "properties": {"city": "\u015eanl\u0131urfa", "telefon": "(0414) 313 50 63", "name": "PEDED Psikolojik Dan\u0131\u015fmanl\u0131k Merkezi"}, "type": "Feature"}, {"geometry": {"coordinates": [41.052695,37.556879], "type": "Point"}, "properties": {"city": "Mardin", "telefon": "0507 120 84 55", "name": "D\u0131lken Sevin\u00e7 Psikolojik Dan\u0131\u015fmanl\u0131k Merkezi"}, "type": "Feature"}, {"geometry": {"coordinates": [40.434809,38.007384], "type": "Point"}, "properties": {"city": "Diyarbak\u0131r", "telefon": "(0412) 224 21 34", "name": "Diyarbak\u0131r Psikoterapi Merkezi"}, "type": "Feature"}, {"geometry": {"coordinates": [41.237783,37.940825], "type": "Point"}, "properties": {"city": "Batman", "telefon": "0545 699 77 86", "name": "Batman Psikoliv Ki\u015fisel Geli\u015fim ve Psikolojik Dan\u0131\u015fmanl\u0131k Merkezi"}, "type": "Feature"}, {"geometry": {"coordinates": [42.646469,38.350568], "type": "Point"}, "properties": {"city": "Siirt", "telefon": "0546 477 87 47", "name": "Bak\u0131\u015f Psikoloji Dan\u0131\u015fmanl\u0131k ve E\u011fitim"}, "type": "Feature"}, {"geometry": {"coordinates": [42.246835,37.360044], "type": "Point"}, "properties": {"city": "\u015e\u0131rnak", "telefon": " 0541 255 25 21", "name": "Psikolog - Psikoterapist R\u0131dvan \u0130D\u0130Z"}, "type": "Feature"}, {"geometry": {"coordinates": [44.535158,38.020209], "type": "Point"}, "properties": {"city": "Hakkari", "telefon": "(0438) 211 65 19", "name": "Hakkari MERKEZ TOPLUM SA\u011eLI\u011eI MERKEZ\u0130"}, "type": "Feature"}, {"geometry": {"coordinates": [43.781477,38.675656], "type": "Point"}, "properties": {"city": "Van", "telefon": "0545 557 67 06", "name": "Van Psikoloji | Psikolog & Psikoterapist \u0130brahim A\u011eIR"}, "type": "Feature"}, {"geometry": {"coordinates": [43.147185, 40.56371], "type": "Point"}, "properties": {"city": "Kars", "telefon": "0553 118 90 18", "name": "Kars Psikolog Sangu Psikolojik Dan\u0131\u015fmanl\u0131k Merkezi"}, "type": "Feature"}, {"geometry": {"coordinates": [41.281261, 39.94568], "type": "Point"}, "properties": {"city": "Erzurum", "telefon": "0542 746 14 01", "name": "PS\u0130KOLOG MUSTAFA UZD\u0130LL\u0130"}, "type": "Feature"}, {"geometry": {"coordinates": [37.287794,38.535599], "type": "Point"}, "properties": {"city": "Elaz\u0131\u011f", "telefon": "0505 595 26 98", "name": "Elazig Psikolojik Destek"}, "type": "Feature"}, {"geometry": {"coordinates": [40.672468,41.122221], "type": "Point"}, "properties": {"city": "Rize", "telefon": "0541 122 12 54", "name": "Rize Sa\u011fl\u0131k Kompleksi"}, "type": "Feature"}, {"geometry": {"coordinates": [39.773905,41.0255], "type": "Point"}, "properties": {"city": "Trabzon", "telefon": "(0462) 410 40 10", "name": "AYSH GEL\u0130\u015e\u0130M PS\u0130KOLOJ\u0130K DANI\u015eMANLIK MERKEZ\u0130"}, "type": "Feature"}, {"geometry": {"coordinates": [39.852645,41.114385], "type": "Point"}, "properties": {"city": "Trabzon", "telefon": "(0462) 888 88 68", "name": "KARADEN\u0130Z FARKINDALIK ENST\u0130T\u00dcS\u00dc"}, "type": "Feature"}, {"geometry": {"coordinates": [41.775529,39.359445], "type": "Point"}, "properties": {"city": "Giresun", "telefon": "(0454) 216 81 34", "name": "Sinerji Psikolojik Dan\u0131\u015fmanl\u0131k Merkezi"}, "type": "Feature"}, {"geometry": {"coordinates": [36.405775,41.360664], "type": "Point"}, "properties": {"city": "Samsun", "telefon": "0543 454 64 84", "name": "\u0130rem Kay\u0131r Psikolojik Dan\u0131\u015fmanl\u0131k ve E\u011fitim Merkezi"}, "type": "Feature"}, {"geometry": {"coordinates": [36.385416,41.350627], "type": "Point"}, "properties": {"city": "Samsun", "telefon": "(0362) 438 63 25", "name": "Psikoodak - Bireysel ve Kurumsal Dan\u0131\u015fmanl\u0131k"}, "type": "Feature"}, {"geometry": {"coordinates": [42.016551,37.058185], "type": "Point"}, "properties": {"city": "Amasya", "telefon": "0553 529 25 65", "name": "PsikolojiDestek Dan\u0131\u015fmanl\u0131k Merkezi(Uzman Klinik Psikolog Merve SAATCI)"}, "type": "Feature"}, {"geometry": {"coordinates": [35.172656,41.159944], "type": "Point"}, "properties": {"city": "Tokat", "telefon": "0541 532 94 16", "name": "Psikoterapist Sava\u015f POLAT"}, "type": "Feature"}, {"geometry": {"coordinates": [34.126622,41.593897], "type": "Point"}, "properties": {"city": "Kastamonu", "telefon": "(0366) 999 19 29", "name": "Ada Psikoloji Dan\u0131\u015fmanl\u0131k Merkezi"}, "type": "Feature"}, {"geometry": {"coordinates": [33.351229,41.518725], "type": "Point"}, "properties": {"city": "Karab\u00fck", "telefon": "0542 778 09 08", "name": "Karab\u00fck Psikolog Cansu KOLCU"}, "type": "Feature"}, {"geometry": {"coordinates": [31.89116,41.49943], "type": "Point"}, "properties": {"city": "Zonguladak", "telefon": "(0372) 268 32 22", "name": "Zonguldak Kad\u0131n Do\u011fum Ve \u00c7ocuk Hastal\u0131klar\u0131 Hastanesi"}, "type": "Feature"}, {"geometry": {"coordinates": [31.649246,40.755402], "type": "Point"}, "properties": {"city": "Bolu", "telefon": null, "name": "Refika Baysal Toplum Sa\u011fl\u0131\u011f\u0131 Mer."}, "type": "Feature"}, {"geometry": {"coordinates": [31.839408,41.278595], "type": "Point"}, "properties": {"city": "D\u00fczce", "telefon": "(0380) 525 00 03", "name": "\u00d6zel Fizema T\u0131p Merkezi"}, "type": "Feature"}, {"geometry": {"coordinates": [30.487464,40.828569], "type": "Point"}, "properties": {"city": "Sakarya", "telefon": "0541 844 11 54", "name": "G\u00fcndo\u011far Psikolojik Dan\u0131\u015fmanl\u0131k"}, "type": "Feature"}, {"geometry": {"coordinates": [29.245127,40.281596], "type": "Point"}, "properties": {"city": "Bursa", "telefon": "0537 021 25 08", "name": "Bursa Pozitif Ya\u015fam Psikolojik Dan\u0131\u015fmanl\u0131k Merkezi"}, "type": "Feature"}, {"geometry": {"coordinates": [30.020315,40.942111], "type": "Point"}, "properties": {"city": "Yalova", "telefon": "(0226) 814 67 75", "name": "Spontan Psikolojik Dan\u0131\u015fmanl\u0131k ve Gebe Okulu"}, "type": "Feature"}, {"geometry": {"coordinates": [30.793326,39.704984], "type": "Point"}, "properties": {"city": "U\u015fak", "telefon": "0545 505 45 20", "name": "Ke\u015fifPsikoloji Dr. Hacer ULA\u015eAN(Pedagog/Psikolog)"}, "type": "Feature"}, {"geometry": {"coordinates": [29.552888,39.082399], "type": "Point"}, "properties": {"city": "Ayd\u0131n", "telefon": "(0256) 213 88 10", "name": "Ye\u015filay Dan\u0131\u015fmanl\u0131k Merkezi (YEDAM) Ayd\u0131n"}, "type": "Feature"}, {"geometry": {"coordinates": [30.076304,38.151261], "type": "Point"}, "properties": {"city": "Mu\u011fla", "telefon": "0532 674 08 36", "name": "Marmaris Psikolog I Moira Psikolojik Dan\u0131\u015fmanl\u0131k"}, "type": "Feature"}, {"geometry": {"coordinates": [27.308061,38.556379], "type": "Point"}, "properties": {"city": "\u0130zmir", "telefon": "(0232) 336 36 84", "name": "\u0130ZM\u0130R PS\u0130KOLOG - PS\u0130KOTERAP\u0130 MERKEZ\u0130"}, "type": "Feature"}, {"geometry": {"coordinates": [41.288211, 39.94568], "type": "Point"}, "properties": {"city": "\u0130zmir", "telefon": "0850 811 6630", "name": "Uzman Psikolog Murat Sar\u0131soy"}, "type": "Feature"}, {"geometry": {"coordinates": [34.213283,40.782962], "type": "Point"}, "properties": {"city": "Konya", "telefon": "(0332) 322 01 03", "name": "Psikon Psikolojik Destek ve Terapi Merkezi Konya Psikolog"}, "type": "Feature"}, {"geometry": {"coordinates": [33.124218,40.117357], "type": "Point"}, "properties": {"city": "Ankara", "telefon": "(0312) 446 76 57", "name": "Ya\u015fam Aile Dan\u0131\u015fma Merkezi"}, "type": "Feature"}, {"geometry": {"coordinates": [32.181454,39.678018], "type": "Point"}, "properties": {"city": "Ankara", "telefon": "(0312) 241 99 60", "name": "MAK PS\u0130KOLOJ\u0130"}, "type": "Feature"}, {"geometry": {"coordinates": [33.124218,40.117357], "type": "Point"}, "properties": {"city": "Ankara", "telefon": "(0312) 985 08 88", "name": "Alfa Terapi"}, "type": "Feature"}, {"geometry": {"coordinates": [30.565177,39.795584], "type": "Point"}, "properties": {"city": "Eski\u015fehir", "telefon": " (0222) 320 33 30", "name": "Sonsuz Geli\u015fim Psikolojik Dan\u0131\u015fmanl\u0131k"}, "type": "Feature"}, {"geometry": {"coordinates": [30.55443,39.80369], "type": "Point"}, "properties": {"city": "Eski\u015fehir", "telefon": " (0222) 230 84 74", "name": "PS\u0130K\u0130YATR\u0130 UZMANI DR. SITKI KARACA"}, "type": "Feature"}], "type": "FeatureCollection"}
